[
  {
    "location_id": "sea_us",
    "name": "Seattle",
    "latitude": 47.6062,
    "longitude": -122.3321,
    "timezone": "America/Los_Angeles"
  },
  {
    "location_id": "sfo_us",
    "name": "San Francisco",
    "latitude": 37.7749,
    "longitude": -122.4194,
    "timezone": "America/Los_Angeles"
  },
  {
    "location_id": "lax_us",
    "name": "Los Angeles",
    "latitude": 34.0522,
    "longitude": -118.2437,
    "timezone": "America/Los_Angeles"
  },
  {
    "location_id": "phx_us",
    "name": "Phoenix",
    "latitude": 33.4484,
    "longitude": -112.074,
    "timezone": "America/Phoenix"
  },
  {
    "location_id": "den_us",
    "name": "Denver",
    "latitude": 39.7392,
    "longitude": -104.9903,
    "timezone": "America/Denver"
  },
  {
    "location_id": "dfw_us",
    "name": "Dallas",
    "latitude": 32.7767,
    "longitude": -96.797,
    "timezone": "America/Chicago"
  },
  {
    "location_id": "chi_us",
    "name": "Chicago",
    "latitude": 41.8781,
    "longitude": -87.6298,
    "timezone": "America/Chicago"
  },
  {
    "location_id": "mia_us",
    "name": "Miami",
    "latitude": 25.7617,
    "longitude": -80.1918,
    "timezone": "America/New_York"
  },
  {
    "location_id": "nyc_us",
    "name": "New York",
    "latitude": 40.7128,
    "longitude": -74.006,
    "timezone": "America/New_York"
  },
  {
    "location_id": "bos_us",
    "name": "Boston",
    "latitude": 42.3601,
    "longitude": -71.0589,
    "timezone": "America/New_York"
  },
  {
    "location_id": "anc_us",
    "name": "Anchorage",
    "latitude": 61.2181,
    "longitude": -149.9003,
    "timezone": "America/Anchorage"
  },
  {
    "location_id": "hnl_us",
    "name": "Honolulu",
    "latitude": 21.3069,
    "longitude": -157.8583,
    "timezone": "Pacific/Honolulu"
  }
]  